[
  {
    "id": 127,
    "name": "حي جبره",
    "lat": "21.2978574",
    "lng": "40.4254443",
    "address": "حي جبره - طريق المطار - مقابل اسواق العثيم.",
    "city": "الطائف",
    "phone": "",
    "hours1": ""
  },
  {
    "id": 125,
    "name": "حي الندوة (النظيم )",
    "lat": "24.803265",
    "lng": "46.8684966",
    "address": "حي الندوة (النظيم ) ، طريق خريص ، مقابل قصر امسيات الشرق.",
    "city": "الرياض",
    "phone": "",
    "hours1": ""
  },
  {
    "id": 123,
    "name": "ممشى الهجرة",
    "lat": "24.4241969",
    "lng": "39.5886996",
    "address": "شارع العباس بن عبادة (ممشى الهجرة) بجانب مقهى اكس او اكس او. ",
    "city": "المدينة المنورة",
    "phone": "",
    "hours1": ""
  },
  {
    "id": 121,
    "name": "المنطقة المركزية الشمالية ",
    "lat": "24.4716847",
    "lng": "39.6073076,17",
    "address": "المنطقة المركزية الشمالية – فندق إيلاف المجيدي ، بجوار مركز طيبة التجاري.",
    "city": "المدينة المنورة",
    "phone": "",
    "hours1": ""
  },
  {
    "id": 117,
    "name": "حي النوارية",
    "lat": "21.550538",
    "lng": "39.775792",
    "address": "طريق المدينة بجوار دهانات الجزيرة.",
    "city": "مكة المكرمة",
    "phone": "",
    "hours1": ""
  },
  {
    "id": 115,
    "name": "حي السلام",
    "lat": "25.394662",
    "lng": "49.561113",
    "address": " طريق عين النجم ، المبرز.",
    "city": "الهفوف",
    "phone": "",
    "hours1": ""
  },
  {
    "id": 113,
    "name": "حي العزيزية",
    "lat": "27.533306",
    "lng": "41.659592",
    "address": "طريق الملك فهد بجوار روف للاثاث",
    "city": "حائل",
    "phone": "",
    "hours1": ""
  },
  {
    "id": 111,
    "name": "حي البوادي",
    "lat": "21.594427",
    "lng": "39.17327",
    "address": "شارع الستين, أسواق طيبة 1.",
    "city": "جدة",
    "phone": "",
    "hours1": ""
  },
  {
    "id": 108,
    "name": "حي اليرموك",
    "lat": "24.8063109",
    "lng": "46.8008059",
    "address": "طريق الإمام عبد لله بن سعود بجانب توب تن.",
    "city": "الرياض",
    "phone": "",
    "hours1": ""
  },
  {
    "id": 107,
    "name": "حي ظهرة لبن",
    "lat": "24.634025",
    "lng": "46.56714",
    "address": "شارع الشفا، بجوار مطعم النافورة.",
    "city": "الرياض",
    "phone": "",
    "hours1": ""
  },
  {
    "id": 105,
    "name": "حي العليا",
    "lat": "28.3765699",
    "lng": "36.5802937",
    "address": "حي العليا - طريق الملك عبدالعزيز.",
    "city": "تبوك",
    "phone": "",
    "hours1": "9:30AM-12PM | 4PM-11PM"
  },
  {
    "id": 103,
    "name": "حي السامر",
    "lat": "21.594661",
    "lng": "39.2463981",
    "address": "طريق الأجواد بجانب ماكدونالدز.",
    "city": "جدة",
    "phone": "",
    "hours1": "10AM-12:25PM | 4:30PM-12AM"
  },
  {
    "id": 101,
    "name": "حي غرناطة",
    "lat": "24.1320862",
    "lng": "47.2694072",
    "address": "حي غرناطه : طريق الملك عبد الله ، خليفة بارك.",
    "city": "الخرج",
    "phone": "",
    "hours1": "9:30AM-12PM | 4PM-11PM"
  },
  {
    "id": 95,
    "name": "حي الهنداوية",
    "lat": "21.4720362",
    "lng": "39.1868482",
    "address": "طريق الملك خالد بجانب سوق الخيمة.",
    "city": "جدة",
    "phone": "",
    "hours1": "10AM-12:25PM | 4:30PM-12AM"
  },
  {
    "id": 93,
    "name": "طريق الملك عبدالعزيز",
    "lat": "19.134331",
    "lng": "41.07253",
    "address": "طريق الملك عبد العزيز خلف مركز رد تاق.",
    "city": "القنفذة",
    "phone": "",
    "hours1": "10AM–12AM"
  },
  {
    "id": 89,
    "name": "شارع المستشفى",
    "lat": "19.8611318",
    "lng": "41.5715399",
    "address": "شارع المستشفى, مركز ابو الخير بلازا، أمام أسواق المزرعة",
    "city": "بلجرشي",
    "phone": "",
    "hours1": "9:30AM-12PM | 4:30PM-11:30PM"
  },
  {
    "id": 87,
    "name": "حي الشاطيء الشرقي",
    "lat": "26.455637",
    "lng": "50.125288",
    "address": "طريق الخليج شرق ميدان الصواري.",
    "city": "الدمام",
    "phone": "",
    "hours1": "9:30AM-11PM"
  },
  {
    "id": 85,
    "name": "حي العوالي",
    "lat": "21.354053",
    "lng": "39.892459",
    "address": "شارع الجفالي مقابل مسجد النور.",
    "city": "مكة المكرمة",
    "phone": "",
    "hours1": "10AM–12AM"
  },
  {
    "id": 84,
    "name": "الجرف",
    "lat": "24.491081",
    "lng": "39.569758",
    "address": "شارع خالد بن الوليد.",
    "city": "المدينة المنورة",
    "phone": "",
    "hours1": "10AM–12:20PM 4:30PM–12AM"
  },
  {
    "id": 83,
    "name": "المطار",
    "lat": "24.486534",
    "lng": "39.6344407",
    "address": "طريق المطار : بالقرب من تقاطع الأمير محمد بن عبد العزيز.",
    "city": "المدينة المنورة",
    "phone": "+966(14)8395891",
    "hours1": "9AM–12AM"
  },
  {
    "id": 81,
    "name": "حي الدفاع",
    "lat": "24.45023",
    "lng": "39.518669",
    "address": "شارع الإمام البخاري، بجوار مركز رد تاق.",
    "city": "المدينة المنورة",
    "phone": "",
    "hours1": "10AM–12:20PM 4:30PM–12AM"
  },
  {
    "id": 80,
    "name": "قباء",
    "lat": "24.441407",
    "lng": "39.621133",
    "address": "طريق الهجرة بجانب مستشفى الدار الجديد.",
    "city": "المدينة المنورة",
    "phone": "+966(14)8274154",
    "hours1": "9AM–12AM"
  },
  {
    "id": 79,
    "name": "سلطانة",
    "lat": "24.482653",
    "lng": "39.597282",
    "address": "طريق سلطانه، بجوار سوق المدينة الدولي",
    "city": "المدينة المنورة",
    "phone": "+966(14)8152332",
    "hours1": "9AM–12AM"
  },
  {
    "id": 78,
    "name": "طريق الجامعات",
    "lat": "24.421131",
    "lng": "39.530033",
    "address": "طريق الأمير نايف، مقابل المستشفى السعودي الألماني.",
    "city": "المدينة المنورة",
    "phone": "+966(14)8406420",
    "hours1": "10AM–12:30PM 4:30PM–12AM"
  },
  {
    "id": 77,
    "name": "حي النسيم",
    "lat": "24.725887",
    "lng": "46.82037",
    "address": "شارع سعد بن ابي وقاص، بجوار البنك العربي الوطني.",
    "city": "الرياض",
    "phone": "",
    "hours1": "9:30AM–11PM"
  },
  {
    "id": 76,
    "name": "حي السويدي الغربي",
    "lat": "24.851533",
    "lng": "46.612032",
    "address": "طريق المدينة المنورة، شرق مخرج ٢٨",
    "city": "الرياض",
    "phone": "+966(11)4332474",
    "hours1": "9:30AM–11PM"
  },
  {
    "id": 75,
    "name": "حي المروج",
    "lat": "24.784717",
    "lng": "46.664579",
    "address": "طريق الإمام سعود بن عبد العزيز، بجوار البنك الأهلي التجاري.",
    "city": "الرياض",
    "phone": "",
    "hours1": "9:30AM-11PM"
  },
  {
    "id": 73,
    "name": "حي الحمراء",
    "lat": "24.775035",
    "lng": "46.754347",
    "address": "شارع خالد بن الوليد، مجمّع حمراء الشرق.",
    "city": "الرياض",
    "phone": "+966566887700",
    "hours1": "9:30AM-12PM | 4PM-11PM"
  },
  {
    "id": 71,
    "name": "حي الياسمين",
    "lat": "24.813062",
    "lng": "46.62792",
    "address": "طريق أنس بن مالك، شرق طريق العليا العام.",
    "city": "الرياض",
    "phone": "",
    "hours1": "9:30AM-12PM | 4PM-11PM"
  },
  {
    "id": 70,
    "name": "العزيزية (2)",
    "lat": "21.411325",
    "lng": "39.866739",
    "address": "شارع العزيزية العام، بجوار فندق سناف-ان.",
    "city": "مكة المكرمة",
    "phone": "",
    "hours1": "10AM–12AM"
  },
  {
    "id": 69,
    "name": "حي الشوقية",
    "lat": "21.371661",
    "lng": "39.803509",
    "address": "سوق القوافل، بجوار سنتر بوينت.",
    "city": "مكة المكرمة",
    "phone": "+966(12)5360967",
    "hours1": "10AM–12AM"
  },
  {
    "id": 68,
    "name": "جبل عمر (1)",
    "lat": "21.421071",
    "lng": "39.821668",
    "address": "الحرم : المنطقة المركزية أبراج جبل عمر S1.",
    "city": "مكة المكرمة",
    "phone": "+966(12)5759925",
    "hours1": "9AM–11PM"
  },
  {
    "id": 67,
    "name": "الستين",
    "lat": "21.436943",
    "lng": "39.790191",
    "address": "شارع عبد الله عريف مقابل مركز سمارت فون.",
    "city": "مكة المكرمة",
    "phone": "",
    "hours1": "10AM–12AM"
  },
  {
    "id": 66,
    "name": "العزيزية (1)",
    "lat": "21.40719",
    "lng": "39.869508",
    "address": "شارع العزيزية العام، بجوار معرض السيف.",
    "city": "مكة المكرمة",
    "phone": "+966(12)5495830",
    "hours1": "10AM–12AM"
  },
  {
    "id": 65,
    "name": "حي العدل",
    "lat": "21.4442957",
    "lng": "39.8604557",
    "address": "طريق جبل النور، بجوار مكتبة جرير.",
    "city": "مكة المكرمة",
    "phone": "+966(12)5541736",
    "hours1": "10AM–12AM"
  },
  {
    "id": 64,
    "name": "محايل عسير",
    "lat": "18.545379",
    "lng": "42.038008",
    "address": "طريق الملك فيصل، امام الحزام مول.",
    "city": "محايل عسير",
    "phone": "",
    "hours1": "9:30AM-12PM | 4:30PM-11:30PM"
  },
  {
    "id": 62,
    "name": "دبي مول",
    "lat": "18.285293",
    "lng": "42.727058",
    "address": "شارع الحزام، بجوار بندّه.",
    "city": "خميس مشيط",
    "phone": "",
    "hours1": "9:30AM-12PM | 4:30PM-11:30PM"
  },
  {
    "id": 61,
    "name": "جيزان",
    "lat": "16.905678",
    "lng": "42.552383",
    "address": "طريق الامير سلطان بجوار ميدان الشراع.",
    "city": "جيزان",
    "phone": "",
    "hours1": "9:30AM-12PM | 4:30PM-11:30PM"
  },
  {
    "id": 60,
    "name": "حي المروة",
    "lat": "21.62209",
    "lng": "39.200565",
    "address": "شارع حراء ، مندرين افينو مول.",
    "city": "جدة",
    "phone": "",
    "hours1": "9AM–12AM"
  },
  {
    "id": 59,
    "name": "حي النهضة",
    "lat": "21.610283",
    "lng": "39.137128",
    "address": " شارع حراء - حراء بلازا.",
    "city": "جدة",
    "phone": "",
    "hours1": "9AM–12AM"
  },
  {
    "id": 58,
    "name": "حي الفيحاء",
    "lat": "21.490831",
    "lng": "39.22138",
    "address": "شارع عبد الله سليمان، مقابل جولدز جيم.",
    "city": "جدة",
    "phone": "",
    "hours1": "9AM–12AM"
  },
  {
    "id": 57,
    "name": "حي الفيصلية",
    "lat": "21.573852",
    "lng": "39.179975",
    "address": "شارع الستين، مركز العبد اللطيف بلازا.",
    "city": "جدة",
    "phone": "+966(12)6981946",
    "hours1": "9AM–12AM"
  },
  {
    "id": 56,
    "name": "حي العزيزية",
    "lat": "21.550926",
    "lng": "39.203607",
    "address": "طريق الأمير ماجد، فلامينجو مول.",
    "city": "جدة",
    "phone": "+966(12)6768863",
    "hours1": "9AM–12AM"
  },
  {
    "id": 55,
    "name": "حي السلامة",
    "lat": "21.590636",
    "lng": "39.144318",
    "address": "طريق الأمير سلطان، مقابل مستشفى غسان فرعون.",
    "city": "جدة",
    "phone": "",
    "hours1": "9AM–12AM"
  },
  {
    "id": 54,
    "name": "حي النزهة",
    "lat": "21.625539",
    "lng": "39.162472",
    "address": "شارع الستين، الجواد سنتر، خلف مجمع العرب.",
    "city": "جدة",
    "phone": "+966(12)6052856",
    "hours1": "9AM–12AM"
  },
  {
    "id": 52,
    "name": "حي الصفا (١)",
    "lat": "21.579783",
    "lng": "39.224463",
    "address": "شارع عبد العزيز بن إبراهيم، خلف سوق المرجان (السوريين سابقاً).",
    "city": "جدة",
    "phone": "+966(12)6284451",
    "hours1": "9AM–12AM"
  },
  {
    "id": 51,
    "name": "حي الكوثر",
    "lat": "21.733126",
    "lng": "39.194957",
    "address": "شارع الحمدانية العام، مقابل مصرف الإنماء.",
    "city": "جدة",
    "phone": "",
    "hours1": "9AM–12AM"
  },
  {
    "id": 49,
    "name": "حي حوايا",
    "lat": "21.260437",
    "lng": "40.409912",
    "address": "شارع شهار العام، مقابل ثانوية ثقف.",
    "city": "الطائف",
    "phone": "+966(12)7421521",
    "hours1": "10AM–12AM"
  },
  {
    "id": 48,
    "name": "حي شهار",
    "lat": "21.249209",
    "lng": "40.413755",
    "address": "شارع شهار، بجوار بنك البلاد.",
    "city": "الطائف",
    "phone": "",
    "hours1": "10AM–12AM"
  },
  {
    "id": 47,
    "name": "حي الشريمية",
    "lat": "26.095667",
    "lng": "43.985548",
    "address": "طريق الملك عبد العزيز، جوار ثانوية الشبيلي.",
    "city": "عنيزة",
    "phone": "+966(12)5591780",
    "hours1": "9:30AM-12PM | 4PM-11PM"
  },
  {
    "id": 46,
    "name": "حي البشر",
    "lat": "26.368649",
    "lng": "43.930999",
    "address": "طريق عمر بن الخطاب مقابل وزراة الشؤون الإسلامية.",
    "city": "بريدة",
    "phone": "",
    "hours1": "9:30AM-11PM"
  },
  {
    "id": 45,
    "name": "حي البندر",
    "lat": "24.098456",
    "lng": "38.035153",
    "address": "طريق عمر بن الخطاب بجوار معرض اكسترا.",
    "city": "ينبع",
    "phone": "",
    "hours1": "10AM–12:20PM 4:30PM–12AM"
  },
  {
    "id": 44,
    "name": "حي الموظفين",
    "lat": "18.238181",
    "lng": "42.594734",
    "address": "طريق الملك فيصل، مقابل الإدارة العامة للشؤون الزراعية.",
    "city": "أبها",
    "phone": "",
    "hours1": "10AM–12:30PM 4:30PM–12AM"
  },
  {
    "id": 43,
    "name": "حي الضباب",
    "lat": "18.202426",
    "lng": "42.512906",
    "address": "طريق الملك عبد العزيز، بجوار سنتر بوينت.",
    "city": "أبها",
    "phone": "+966(17)2298856",
    "hours1": "9AM–12AM"
  }
]
